{"type": "FeatureCollection", "features": [{"type": "Feature", "geometry": {"type": "Point", "coordinates": [121.19533527696792, 24.028880866425993]}, "properties": {"name": "波阿倫社 (Boarung)", "type": "Settlement", "x": 270100, "y": 2658500}}, {"type": "Feature", "geometry": {"type": "Point", "coordinates": [121.20408163265306, 24.034296028880867]}, "properties": {"name": "馬赫坡社 (Mahebo)", "type": "Settlement", "x": 271000, "y": 2659100}}, {"type": "Feature", "geometry": {"type": "Point", "coordinates": [121.21865889212827, 24.060469314079423]}, "properties": {"name": "都達社 (Tuda)", "type": "Settlement", "x": 272500, "y": 2662000}}, {"type": "Feature", "geometry": {"type": "Point", "coordinates": [121.23323615160349, 24.074007220216608]}, "properties": {"name": "德路固社 (Truku)", "type": "Settlement", "x": 274000, "y": 2663500}}, {"type": "Feature", "geometry": {"type": "Point", "coordinates": [121.1846452866861, 24.01534296028881]}, "properties": {"name": "櫻社 (Sakura)", "type": "Settlement", "x": 269000, "y": 2657000}}, {"type": "Feature", "geometry": {"type": "Point", "coordinates": [121.17492711370262, 24.006317689530686]}, "properties": {"name": "富士社 (Fuji)", "type": "Settlement", "x": 268000, "y": 2656000}}], "crs": {"type": "name", "properties": {"name": "urn:ogc:def:crs:OGC:1.3:CRS84"}}}